X,Y,Name,nid,parent_nid,serial,type,latitude,longitude,status
116.8278833,-1.2635389,Kota Balikpapan,1633,23.0,6471,2,-1.2635389,116.8278833,1
111.4752851,-0.2787808,Provinsi Kalimantan Barat,20,0.0,61,1,-0.2787808,111.4752851,1
113.3823545,-1.6814878,Provinsi Kalimantan Tengah,21,0.0,62,1,-1.6814878,113.3823545,1
115.2837585,-3.0926415,Provinsi Kalimantan Selatan,22,0.0,63,1,-3.0926415,115.2837585,1
116.419389,1.6406296,Provinsi Kalimantan Timur,23,0.0,64,1,1.6406296,116.419389,1
